~Version Information
 VERS.                 2.0 : CWLS Log ASCII Standard - Version 2.0
 WRAP.                  NO : One line per depth step
~Well Information
 STRT.M           1500.0000             : Start depth
 STOP.M           1505.9436             : Stop depth
 STEP.M           0.1524                : Step
 NULL.            -999.25               : Null value
 WELL.            SANDI-BAD-NULL          : Well name
 FLD .            SANDI                 : Field
~Curve Information
 DEPT.M                                 : Measured depth
 GR  .GAPI                              : Gamma ray
 RHOB.G/C3                              : Bulk density
~ASCII
 -999.2500   112.05   2.4533
 -999.2500   112.37   2.4444
 -999.2500   109.95   2.4368
 -999.2500   106.98   2.4425
 -999.2500   110.72   2.4571
 -999.2500   111.22   2.4395
 -999.2500   108.27   2.4483
 -999.2500   107.05   2.4543
 -999.2500   114.25   2.4508
 -999.2500   109.76   2.4516
 -999.2500   111.05   2.4621
 -999.2500   109.00   2.4541
 -999.2500   107.90   2.4476
 -999.2500   110.57   2.4527
 -999.2500   110.59   2.4442
 -999.2500   108.02   2.4517
 -999.2500   111.18   2.4523
 -999.2500   108.86   2.4424
 -999.2500   111.41   2.4465
 -999.2500   111.38   2.4497
 -999.2500   108.33   2.4514
 -999.2500   110.64   2.4474
 -999.2500   109.11   2.4417
 -999.2500   110.50   2.4421
 -999.2500   110.32   2.4379
 -999.2500   111.69   2.4421
 -999.2500   108.62   2.4516
 -999.2500   108.29   2.4398
 -999.2500   110.72   2.4535
 -999.2500   108.74   2.4518
 -999.2500   109.99   2.4597
 -999.2500   109.72   2.4517
 -999.2500   113.13   2.4494
 -999.2500   110.82   2.4472
 -999.2500   110.46   2.4621
 -999.2500   112.18   2.4493
 -999.2500   107.78   2.4490
 -999.2500   108.88   2.4478
 -999.2500   108.77   2.4491
 -999.2500   109.93   2.4434
