~Version Information
 VERS.                 2.0 : CWLS Log ASCII Standard - Version 2.0
 WRAP.                  NO : One line per depth step
~Well Information
 STRT.M           1500.0000             : Start depth
 STOP.M           1505.9436             : Stop depth
 STEP.M           0.1524                : Step
 NULL.            -999.25               : Null value
 WELL.            SANDI-BAD-DUP          : Well name
 FLD .            SANDI                 : Field
~Curve Information
 DEPT.M                                 : Measured depth
 GR  .GAPI                              : Gamma ray
 RHOB.G/C3                              : Bulk density
~ASCII
 1500.0000   111.53   2.4442
 1500.1524   110.54   2.4515
 1500.3048   109.13   2.4573
 1500.4572   108.49   2.4524
 1500.6096   111.79   2.4512
 1500.7620   108.12   2.4517
 1500.9144   112.50   2.4445
 1501.0668   109.11   2.4457
 1501.2192   108.64   2.4448
 1501.2192   107.09   2.4606
 1501.2192   112.89   2.4497
 1501.2192   108.20   2.4408
 1501.2192   111.35   2.4494
 1501.2192   109.23   2.4429
 1502.1336   109.67   2.4471
 1502.2860   110.45   2.4575
 1502.4384   107.89   2.4463
 1502.5908   110.22   2.4487
 1502.7432   110.21   2.4474
 1502.8956   111.43   2.4468
 1503.0480   109.64   2.4546
 1503.2004   109.76   2.4430
 1503.3528   109.92   2.4487
 1503.5052   109.98   2.4496
 1503.6576   113.02   2.4480
 1503.8100   110.12   2.4484
 1503.9624   109.32   2.4573
 1504.1148   111.42   2.4359
 1504.2672   109.58   2.4532
 1504.4196   110.06   2.4522
 1504.5720   110.27   2.4563
 1504.7244   107.62   2.4548
 1504.8768   114.58   2.4493
 1505.0292   110.33   2.4449
 1505.1816   109.89   2.4606
 1505.3340   110.16   2.4475
 1505.4864   110.12   2.4404
 1505.6388   107.63   2.4492
 1505.7912   108.38   2.4511
 1505.9436   109.69   2.4498
