~Version Information
 VERS.                 2.0 : CWLS Log ASCII Standard - Version 2.0
 WRAP.                  NO : One line per depth step
~Well Information
 STRT.M           1500.0000             : Start depth
 STOP.M           1505.9436             : Stop depth
 STEP.M           0.1524                : Step
 NULL.            -999.25               : Null value
 WELL.            SANDI-BAD-TRUNC          : Well name
 FLD .            SANDI                 : Field
~Curve Information
 DEPT.M                                 : Measured depth
 GR  .GAPI                              : Gamma ray
 RHOB.G/C3                              : Bulk density
~ASCII
 1500.0000   110.27   2.4624
 1500.1524   109.58   2.4460
 1500.3048   110.76   2.4509
 1500.4572   107.78   2.4586
 1500.6096   111.96   2.4544
 1500.7620   109.71   2.4532
 1500.9144   108.67   2.4520
 1501.0668   111.93   2.4455
 1501.2192   112.93   2.4482
 1501.2192   110.13   2.4513
 1501.2192   111.52   2.4485
 1501.2192   109.81   2.4501
 1501.2192   111.37   2.4545
 1501.2192   107.30   2.4451
 1502.1336   106.89   2.4585
 1502.2860   107.89   2.4460
 1502.4384   112.17   2.4497
 1502.5908   107.49   2.4534
 1502.7432   110.30   2.4456
 1502.8956   111.34   2.4526
 1503.0480   109.33   2.4395
 1503.2004   109.21   2.4430
 1503.3528   110.62   2.4433
 1503.5052   111.01   2.4433
 1503.6576   112.23   2.4537
 1503.8100   110.94   2.4445
 1503.9624   107.92   2.4458
 1504.1148   107.47   2.4437
 1504.2672   107.24   2.4452
 1504.4196   107.42   2.4514
 1504.5720   109.72   2.4458
 1504.7244   109.51   2.4573
 1504.8768   111.68   2.4494
 1505.0292   111.31   2.4409
 1505.1816   113.35   2.4464
 1505.3340   109.59   2.4511
 1505.4864   110.06   2.4575
 1505.6388   110.14   2.4550
 1505.7912   109.16   2.4471
 1505.9436   107.86
